[
  {
    "isoCode": "USA",
    "name": "United States",
    "lat": 37.0902,
    "lon": -95.7129,
    "cyclePhase": "slowdown",
    "cycleMomentum": -0.11,
    "structuralRisk": 15.4,
    "externalVulnerability": 12.2,
    "stressLevel": 11.5,
    "behavioralSignal": 0.4,
    "instabilityRisk": 2.5,
    "metrics": {
      "gdpGrowth": 0.84,
      "inflation": 3.02,
      "debtToGdp": 60.0,
      "unemployment": 4.4,
      "currencyChange": 0.0
    }
  },
  {
    "isoCode": "CHN",
    "name": "China",
    "lat": 35.8617,
    "lon": 104.1954,
    "cyclePhase": "expansion",
    "cycleMomentum": 0.0,
    "structuralRisk": 0,
    "externalVulnerability": 3.5,
    "stressLevel": 2.1,
    "behavioralSignal": -0.09,
    "instabilityRisk": 3.5,
    "metrics": {
      "gdpGrowth": 1.62,
      "inflation": -0.07,
      "debtToGdp": 60.0,
      "unemployment": 5.0,
      "currencyChange": 1.7
    }
  },
  {
    "isoCode": "JPN",
    "name": "Japan",
    "lat": 36.2048,
    "lon": 138.2529,
    "cyclePhase": "recession",
    "cycleMomentum": 0.75,
    "structuralRisk": 5.1,
    "externalVulnerability": 36.3,
    "stressLevel": 37.6,
    "behavioralSignal": -0.22,
    "instabilityRisk": 30.2,
    "metrics": {
      "gdpGrowth": -2.97,
      "inflation": 3.01,
      "debtToGdp": 60.0,
      "unemployment": 4.6,
      "currencyChange": -9.39
    }
  },
  {
    "isoCode": "DEU",
    "name": "Germany",
    "lat": 51.1657,
    "lon": 10.4515,
    "cyclePhase": "recession",
    "cycleMomentum": 0.3,
    "structuralRisk": 1.0,
    "externalVulnerability": 12.1,
    "stressLevel": 23.5,
    "behavioralSignal": 0.48,
    "instabilityRisk": 16.4,
    "metrics": {
      "gdpGrowth": -4.44,
      "inflation": 2.19,
      "debtToGdp": 60.0,
      "unemployment": 6.0,
      "currencyChange": 1.47
    }
  },
  {
    "isoCode": "IND",
    "name": "India",
    "lat": 20.5937,
    "lon": 78.9629,
    "cyclePhase": "expansion",
    "cycleMomentum": 0.04,
    "structuralRisk": 4.8,
    "externalVulnerability": 20.2,
    "stressLevel": 15.0,
    "behavioralSignal": 0.07,
    "instabilityRisk": 25.1,
    "metrics": {
      "gdpGrowth": 5.55,
      "inflation": 2.95,
      "debtToGdp": 60.0,
      "unemployment": 5.0,
      "currencyChange": -4.8
    }
  },
  {
    "isoCode": "GBR",
    "name": "United Kingdom",
    "lat": 55.3781,
    "lon": -3.436,
    "cyclePhase": "expansion",
    "cycleMomentum": -0.09,
    "structuralRisk": 10.4,
    "externalVulnerability": 24.6,
    "stressLevel": 17.5,
    "behavioralSignal": -0.19,
    "instabilityRisk": 17.3,
    "metrics": {
      "gdpGrowth": 0.53,
      "inflation": 3.42,
      "debtToGdp": 60.0,
      "unemployment": 8.0,
      "currencyChange": -2.29
    }
  },
  {
    "isoCode": "FRA",
    "name": "France",
    "lat": 46.2276,
    "lon": 2.2137,
    "cyclePhase": "expansion",
    "cycleMomentum": 0.25,
    "structuralRisk": 0,
    "externalVulnerability": 12.1,
    "stressLevel": 7.8,
    "behavioralSignal": 0.09,
    "instabilityRisk": 15.0,
    "metrics": {
      "gdpGrowth": 0.68,
      "inflation": 0.76,
      "debtToGdp": 60.0,
      "unemployment": 9.7,
      "currencyChange": 1.47
    }
  },
  {
    "isoCode": "BRA",
    "name": "Brazil",
    "lat": -14.235,
    "lon": -51.9253,
    "cyclePhase": "expansion",
    "cycleMomentum": 0.07,
    "structuralRisk": 20.9,
    "externalVulnerability": 25.4,
    "stressLevel": 23.2,
    "behavioralSignal": -0.26,
    "instabilityRisk": 23.2,
    "metrics": {
      "gdpGrowth": 2.27,
      "inflation": 5.53,
      "debtToGdp": 60.0,
      "unemployment": 5.0,
      "currencyChange": 6.42
    }
  },
  {
    "isoCode": "ITA",
    "name": "Italy",
    "lat": 41.8719,
    "lon": 12.5674,
    "cyclePhase": "recession",
    "cycleMomentum": -0.0,
    "structuralRisk": 0,
    "externalVulnerability": 12.1,
    "stressLevel": 23.2,
    "behavioralSignal": -0.22,
    "instabilityRisk": 17.0,
    "metrics": {
      "gdpGrowth": -3.34,
      "inflation": 1.91,
      "debtToGdp": 60.0,
      "unemployment": 8.4,
      "currencyChange": 1.47
    }
  },
  {
    "isoCode": "CAN",
    "name": "Canada",
    "lat": 56.1304,
    "lon": -106.3468,
    "cyclePhase": "slowdown",
    "cycleMomentum": -0.06,
    "structuralRisk": 4.1,
    "externalVulnerability": 14.2,
    "stressLevel": 9.6,
    "behavioralSignal": 0.26,
    "instabilityRisk": 11.3,
    "metrics": {
      "gdpGrowth": 0.01,
      "inflation": 2.32,
      "debtToGdp": 65.0,
      "unemployment": 7.4,
      "currencyChange": -2.01
    }
  },
  {
    "isoCode": "RUS",
    "name": "Russia",
    "lat": 61.524,
    "lon": 105.3188,
    "cyclePhase": "slowdown",
    "cycleMomentum": -0.36,
    "structuralRisk": 73.5,
    "externalVulnerability": 0.0,
    "stressLevel": 42.4,
    "behavioralSignal": 0.36,
    "instabilityRisk": 65.2,
    "metrics": {
      "gdpGrowth": 5.55,
      "inflation": 16.7,
      "debtToGdp": 60.0,
      "unemployment": 5.0,
      "currencyChange": 0.0
    }
  },
  {
    "isoCode": "KOR",
    "name": "South Korea",
    "lat": 35.9078,
    "lon": 127.7669,
    "cyclePhase": "slowdown",
    "cycleMomentum": -1,
    "structuralRisk": 6.7,
    "externalVulnerability": 28.7,
    "stressLevel": 19.9,
    "behavioralSignal": -0.09,
    "instabilityRisk": 28.6,
    "metrics": {
      "gdpGrowth": 2.47,
      "inflation": 3.34,
      "debtToGdp": 60.0,
      "unemployment": 3.4,
      "currencyChange": -6.63
    }
  },
  {
    "isoCode": "AUS",
    "name": "Australia",
    "lat": -25.2744,
    "lon": 133.7751,
    "cyclePhase": "expansion",
    "cycleMomentum": 0.0,
    "structuralRisk": 0.3,
    "externalVulnerability": 6.2,
    "stressLevel": 2.6,
    "behavioralSignal": -0.49,
    "instabilityRisk": 0.0,
    "metrics": {
      "gdpGrowth": 0.52,
      "inflation": 1.77,
      "debtToGdp": 60.0,
      "unemployment": 5.1,
      "currencyChange": 0.0
    }
  },
  {
    "isoCode": "MEX",
    "name": "Mexico",
    "lat": 23.6345,
    "lon": -102.5528,
    "cyclePhase": "expansion",
    "cycleMomentum": 0.0,
    "structuralRisk": 17.8,
    "externalVulnerability": 15.0,
    "stressLevel": 16.1,
    "behavioralSignal": -0.33,
    "instabilityRisk": 15.1,
    "metrics": {
      "gdpGrowth": 1.14,
      "inflation": 5.57,
      "debtToGdp": 60.0,
      "unemployment": 5.0,
      "currencyChange": 4.95
    }
  },
  {
    "isoCode": "IDN",
    "name": "Indonesia",
    "lat": -0.7893,
    "lon": 113.9213,
    "cyclePhase": "expansion",
    "cycleMomentum": 0.0,
    "structuralRisk": 0,
    "externalVulnerability": 1.9,
    "stressLevel": 0.7,
    "behavioralSignal": -0.36,
    "instabilityRisk": 0.0,
    "metrics": {
      "gdpGrowth": 2.39,
      "inflation": 1.95,
      "debtToGdp": 60.0,
      "unemployment": 5.0,
      "currencyChange": 0.0
    }
  },
  {
    "isoCode": "SAU",
    "name": "Saudi Arabia",
    "lat": 23.8859,
    "lon": 45.0792,
    "cyclePhase": "slowdown",
    "cycleMomentum": 0.0,
    "structuralRisk": 2.4,
    "externalVulnerability": 1.4,
    "stressLevel": 1.5,
    "behavioralSignal": 0.44,
    "instabilityRisk": 0.0,
    "metrics": {
      "gdpGrowth": -0.45,
      "inflation": 2.49,
      "debtToGdp": 60.0,
      "unemployment": 5.0,
      "currencyChange": 0.0
    }
  },
  {
    "isoCode": "TUR",
    "name": "Turkey",
    "lat": 38.9637,
    "lon": 35.2433,
    "cyclePhase": "slowdown",
    "cycleMomentum": -1,
    "structuralRisk": 100,
    "externalVulnerability": 2.3,
    "stressLevel": 60.9,
    "behavioralSignal": -0.48,
    "instabilityRisk": 100,
    "metrics": {
      "gdpGrowth": 4.81,
      "inflation": 37.86,
      "debtToGdp": 60.0,
      "unemployment": 8.8,
      "currencyChange": 0.0
    }
  },
  {
    "isoCode": "ZAF",
    "name": "South Africa",
    "lat": -30.5595,
    "lon": 22.9375,
    "cyclePhase": "expansion",
    "cycleMomentum": 0.0,
    "structuralRisk": 5.4,
    "externalVulnerability": 19.2,
    "stressLevel": 13.3,
    "behavioralSignal": -0.28,
    "instabilityRisk": 17.2,
    "metrics": {
      "gdpGrowth": 1.06,
      "inflation": 3.08,
      "debtToGdp": 60.0,
      "unemployment": 5.0,
      "currencyChange": 4.19
    }
  },
  {
    "isoCode": "ESP",
    "name": "Spain",
    "lat": 40.4637,
    "lon": -3.7492,
    "cyclePhase": "slowdown",
    "cycleMomentum": -0.23,
    "structuralRisk": 1.3,
    "externalVulnerability": 12.1,
    "stressLevel": 8.8,
    "behavioralSignal": -0.24,
    "instabilityRisk": 17.3,
    "metrics": {
      "gdpGrowth": -0.25,
      "inflation": 2.26,
      "debtToGdp": 60.0,
      "unemployment": 21.7,
      "currencyChange": 1.47
    }
  },
  {
    "isoCode": "CHL",
    "name": "Chile",
    "lat": -35.6751,
    "lon": -71.543,
    "cyclePhase": "expansion",
    "cycleMomentum": 0.23,
    "structuralRisk": 9.7,
    "externalVulnerability": 4.4,
    "stressLevel": 7.8,
    "behavioralSignal": 0.24,
    "instabilityRisk": 10.7,
    "metrics": {
      "gdpGrowth": 4.34,
      "inflation": 3.94,
      "debtToGdp": 60.0,
      "unemployment": 7.1,
      "currencyChange": 0.0
    }
  }
]